Адрес обращения,Дом,Дата,текст обращения,text_clean,categories,full_address,latitude,longitude
бульвар Юго-Западный,10,2021-06-07 12:37:43.927,"Парковочные места для машин, велодорожки для детей",['велодорожка'],{'велосипедная дорожка': 1},10 бульвар Юго-Западный,56.11787000955914,47.187299983197505
улица 10 Пятилетки,44,2021-06-09 22:46:17.940,В подъезде на первом этаже сделать место для велосипедов огородить место,['велосипед'],{'велосипедная дорожка': 1},44 улица 10 Пятилетки,56.108480014888784,47.46387001474568
улица Гражданская,62/1,2021-06-05 00:52:56.009,Дорожки для велосипеда,"['дорожка', 'велосипед']",{'велосипедная дорожка': 1},62/1 улица Гражданская,56.115794256353084,47.19016481201328
улица Ленинского Комсомола,16,2021-06-08 16:57:08.659,"Подъезд №4. Нужно установить решётку на первом этаже при входе в подъезд для хранения велосипедов, санок, колясок.",['велосипед'],{'велосипедная дорожка': 1},16 улица Ленинского Комсомола,56.102939995985,47.27339000779827
улица Пирогова,1 корп. 6,2021-06-07 15:40:52.395,"Увеличение парковочных мест, велодорожек",['велодорожка'],{'велосипедная дорожка': 1},1 корп. 6 улица Пирогова,56.14123019688842,47.22357139646729
